locationCode,name,latitude,longitude,radius
C1008-0,CASH SALE A/C (AMRIT) - MAIN,29.290907,47.918333,30
C1008-17,CASH SALE A/C (AMRIT) - INTL. CENTER GROUP- SHUWAIKH,29.320709,47.928822,30
C1036,SHARIKAT AL ANHAR,29.326876,47.929348,16
C1065,BAKALA AL AGZIYA - DALIYA CENTER,29.259905,47.933437,7
C1066,BARAKA ZAMZAM Shop# 1(Prev MOASES AL NEHERWAN),29.260836,47.932743,7
C1071,BAKALA ABRAJ AL JALEEB,29.256067,47.924721,7
C1101,MARKAZ SURBHI FOODSTUFF- FRUITS & VEG.,29.078213,48.133713,7
C1102-0,INTERNATIONAL CONSUMER COMPANY - MAIN,29.289296,48.066413,30
C1102-1,INTERNATIONAL CONSUMER COMPANY - FOOD CIRCLE- MISHREF,29.289249,48.066424,30
C1109,MOASES BESTOW INTERNATIONAL FOODSTUFF,29.326466,48.060356,22
C112,EMIRATE SUPER MARKET,29.266315,47.917942,7
C1131,HILTON KUWAIT RESORT,29.115562,48.133949,30
C1155,SOUK ZAIN AL LEBANANI AL MERKEZI,29.268595,47.964401,7
C1166,SOUK MAHAMEED AL SHABI - SALHIYA,29.3629,47.965229,22
C1185,BAKALA SHABAB,29.09856,48.127892,7
C119,SOUK DALLAH AL MARKEZI-Farah 2(Prev SOUK AL HABIB),29.307272,47.916817,7
C1224,MOASES ETIHAD AL-ALAMIYA MOAWAD GADAEYA,29.259731,47.91991,30
C1234,HANIL GENERAL TRADING & CONTRACTING- OPP. QATAMI CENTER,29.326876,47.929348,16
C1247-0,HIGHWAY CENTER - MAIN,29.078436,48.131386,22
C1309,MOASES ABDULLAH MAZHAL AL MUTTEIRY (BK. UDAYAM),29.099243,48.129147,7
C13-1,ISHBILYA COOP - Main Souk,29.2745,47.937206,60
C13-2,ISHBILYA COOP - Store,29.2745,47.937206,60
C1326,NEW MEDINA SUPERMARKET,29.078766,48.133595,7
C13-4,ISHBILYA COOP - BRANCH 1,29.270979,47.946949,60
C13-5,ISHBILYA COOP - BRANCH 3,29.271677,47.941345,60
C13-6,ISHBILYA COOP - BRANCH 5,29.271084,47.937161,60
C13-7,ISHBILYA COOP - BRANCH 7,29.271252,47.932587,60
C1374,FANDAK MARINA AL KUWAIT ( MARINA HOTEL KUWAIT),29.341826,48.06543,30
C13-8,ISHBILYA COOP - BRANCH 8,29.277254,47.931408,60
C1392,BAKALA KHANSA AL KUWAIT,29.288835,47.978115,7
C1413-1,ZAHRAT GARNATA RESTAURANT - CHINESE- REGGAE,29.309221,47.916527,30
C1413-2,ZAHRAT AL HIND RESTAURANT - Ardiya,29.293325,47.9119,30
C142,AMBASSADOR DOOR SUPERMARKET,29.36194,47.964932,22
C1422,TAJ SULTAN (GOLDEN) SUPERMARKET,29.256619,47.935181,7
C1423,HOLIDAY INN,29.346088,48.094131,30
C1427,AL YASRA FOOD CO.,29.244278,48.009411,16
C1456,BAKALA FOUZIYAT AL JAZIRA (Prev WASMI VANAS),29.082298,48.123589,30
C1459,AHLIA GROUP CO. W.L.L FOR FOODSTUFF,29.326876,47.929348,16
C1464,SOUK DALA AL MARKAZI,29.306078,47.917099,7
C1475,MAARAD DOAHEE (Prv. Bakala Liwa Al Khaleeji),29.287256,47.97702,7
C1499,BAKALA NAJUM AL MADINA,29.257383,47.935753,22
C1502,MOASES OWAN FOODSTUFF,29.288866,47.959488,7
C1505,BAKALA SHARIKAT AALA AL KHER,29.328903,48.026459,7
C1507,MOASES HIGH LAND FOODSTUFF,29.254198,47.928021,7
C15-1,SALAM & SADEEQ COOP - MAIN SOUK,29.296707,48.009232,60
C1511,SOUK ADWA ASIA AL MARKEZI,29.361265,47.965656,22
C15-2,SALAM & SADEEQ COOP - STORE,29.297216,48.009659,60
C15-3,SALAM & SADEEQ COOP - BRANCH 1,29.301228,48.006016,60
C1539,SOUK ROYAL SIMA AL MARKAZI,29.361265,47.965656,7
C154,BAKALA KOSHER AL KUWAITI,29.372725,48.004852,7
C1544-1,CITY CENTER (EDIBLE OIL DIV.) - SHUWAIKH MANARA,29.328241,47.931141,60
C1544-2,CITY CENTER (EDIBLE OIL DIV.) - SALMIYA,29.328206,48.08161,60
C1544-21,CITY CENTER (EDIBLE OIL DIV.) - DASMA MAIN SUPERMARKET,29.36549,48.001274,60
C1544-22,CITY CENTER (EDIBLE OIL DIV.) - BNEID AL GAR BRANCH,29.371395,48.005959,60
C1544-26,CITY CENTER (EDIBLE OIL DIV.) – DASMA WAREHOUSE.,29.36549,48.001274,60
C1544-5,CITY CENTER (EDIBLE OIL DIV.) - DHAJEEJ,29.263969,47.958872,60
C1544-6,CITY CENTER (EDIBLE OIL DIV.) - JAHRA,29.363331,47.651283,60
C1551,NEW SARHAD RESTAURANT,29.255394,47.924358,30
C1557,BAKALA LULUT AL EMARAT,29.080397,48.132973,7
C1561,SAAKATH HAJEEB RESTAURANT,29.29372,47.969376,30
C1562,UNIVERSAL FOOD COMPANY,29.296495,47.923531,30
C1563,BAKALA SAWAED AL SALMIYA,29.323851,48.064182,7
C15-7,SALAM & SADEEQ COOP - BRANCH 7,29.293777,48.003716,60
C1578,CANTEEN RAWAN,29.361265,47.965656,7
C15-8,SALAM & SADEEQ COOP - QATTA # 2,29.300913,48.020794,60
C1584-1,AL BHAHA SUPERMARKET - Fahaheel,29.078529,48.134468,22
C1584-2,AL BHAHA SUPERMARKET - Mahboula,29.139513,48.128361,22
C1588,AZZAD TRADING GROUP - FOOD DIVISION,29.293133,47.922184,30
C15-9,SALAM & SADEEQ COOP - QATTA # 5,29.290936,48.022991,60
C1590,BAKALA ABRAR AL KHALEEJ,29.259731,47.91991,7
C16-1,HARAS AL WATANI COOP - MAIN SOUK,29.312424,47.911412,60
C1618,SOUK ADWA AL SALAM,29.263054,47.925182,7
C1636,DYNA STORE,29.255264,47.935921,7
C164,LEWAA GROCERY,29.370565,47.978081,7
C16-4,HARAS AL WATANI COOP - NADY BRANCH,29.227026,48.09948,60
C1642,SHARIKAT BURJ AL AID GENERAL TRADING,29.256447,47.92556,7
C16-7,HARAS AL WATANI COOP - SOUK SABHAN (Al-Tahreer),29.260364,48.020561,60
C1686-1,LULU HYPERMARKET - AL RAI,29.31517,47.958987,60
C1686-2,LULU HYPERMARKET - QUREIN,29.201443,48.049816,60
C1686-4,LULU HYPERMARKET - DHAJEEJ,29.264187,47.961281,60
C1686-5,LULU HYPERMARKET - SALMIYA (SALAM MALL),29.335825,48.062992,60
C1686-6,LULU HYPERMARKET - EGAILA,29.169945,48.097717,60
C1686-7,LULU HYPERMARKET - Jahra,29.312243,47.659512,60
C1686-8,LULU  XPRESS - Khaitan,29.289434,47.970505,60
C1710,BAKALA PRESTIGE,29.101725,48.135811,7
C1733,MARKEZ AL SAMA AL AZRAK(Blue Sky Center),29.255253,47.942032,7
C1747-1,SOUK SAFA AL MANGAF(Mangaf),29.09679,48.13147,7
C1749,MOASES ARD AL KIMNA II,29.262056,47.921684,30
C1755,M & P SUPER MARKET,29.32494,48.05999,7
C1757,MR. BAKER GROUP OF COMPANIES,29.321745,47.936001,30
C1758,BAKALA ALA KEFFAIK,29.082298,48.123589,7
C1763,TAWSEEL GENERAL TRADING CO.,29.288965,47.918697,16
C1773,BAKALA KABAN,29.289249,47.978195,7
C1783,Bakala Sharq Al Deera,29.379456,47.994118,7
C1808,MADEENA SUPERMARKET,29.139652,48.122314,22
C1832,BAKALA FARHAT AL HAWALLY,29.332445,48.017601,7
C1846,NEW GULF SUPERMARKET,29.28573,47.976479,7
C1857,BAKALA KHAMIS,29.374428,48.000606,7
C1866,BAKALA SAS AL KUWAIT,29.300528,47.909603,7
C1868,SOUK AL HAKEEMI AL MARKAZI,29.327625,47.927372,16
C1891,MOSES ABRAJ AL EMIRATE FOOD STUFF CO.,29.277887,47.959339,7
C1900,SOUK ADWA AL FARWANIYA AL MARKEZI,29.287012,47.957348,7
C1903,CENTURY BAZAR SUPERMARKET,29.079597,48.134262,22
C19-1,ABU-HALIFA COOP - MAIN SOUK,29.131548,48.126705,60
C19-2,ABU-HALIFA COOP - STORE,29.131548,48.126705,60
C1923,CHOCOLATE SHOP KOC HOSPITAL(Mr. Bassam),29.08831,48.056088,22
C19-3,ABU-HALIFA COOP - Branch 2,29.135265,48.127941,60
C1943,SARGAM RESTAURANT,29.330504,48.058674,30
C1958,COSTA DEL SOL HOTEL,29.349949,48.032221,30
C1969,BIN SABT CENTER (Perfumery),29.362145,47.963257,30
C1981,INDIA GATE (BAB AL HIND) SUPERMARKET,29.282847,47.962299,22
C1995,AL SAFE KASHMIRI BASTA #6,29.369991,47.974884,30
C2031-1,CITY CENTRE - SHUWAIKH (Manara Mall),29.328241,47.931141,60
C2031-2,CITY CENTRE - SALMIYA,29.328206,48.08161,60
C2031-21,CITY CENTRE - DASMAH MAIN SUPERMARKET,29.36549,48.001274,60
C2031-22,CITY CENTRE - BNEID AL GAR BRANCH,29.371395,48.005959,60
C2031-26,CITY CENTRE - Dasma Warehouse,29.36549,48.001274,60
C2031-5,CITY CENTRE - DHAJEEJ,29.263969,47.958872,60
C2031-6,CITY CENTRE - JAHRA,29.363331,47.651283,60
C2078-14,M H AL SHAYA Co.- ASHAS RESTAURANT-AVENUES MALL,29.302039,47.931352,60
C2078-17,M H AL SHAYA Co.- Babel - Salmiya,29.344826,48.073836,60
C2078-18,M H AL SHAYA Co.- PF Chang's – Avenues Phase#2,29.30266,47.936794,60
C2078-19,M H AL SHAYA Co.-400 GRADI -  Avenues Phase # 4,29.304519,47.94089,60
C2078-2,M H AL SHAYA Co.- ASHAS MARINA CRESCENT-SALMIYA,29.342082,48.065089,60
C2078-23,M H AL SHAYA Co.-BLAZE PIZZA -  Avenues Phase # 4,29.303669,47.942639,60
C2078-25,M H AL SHAYA Co.- DEAN & DELUCA- AVENUES MALL,29.257519,48.022223,60
C2078-26,M H AL SHAYA Co.- Spontini -  Avenues Phase # 4,29.304067,47.940726,60
C2078-31,M H AL SHAYA Co.- BLAZE PIZZA MOUROUJ SAHARA. (Sabhan),29.261238,48.022213,60
C2078-36,M H AL SHAYA Co.- ASHAS SPOONS- MAHBOULA,29.154208,48.125369,60
C2078-47,M H AL SHAYA - VERANDA REST. - The Grand Avenues - Phase# 3,29.302918,47.938217,60
C2078-49,M H AL SHAYA - CAFE COCO -  Avenues - Phase# 3,29.302778,47.935054,60
C2078-6,M H AL SHAYA Co.- Asha’s Boulevard Mall - Salmiya,29.330732,48.076444,60
C2078-7,M H AL SHAYA Co.- Cleo Avenues Phase#4-Al Rai,29.304243,47.940674,60
C2080,HI-DINE SUPERMARKET,29.256891,47.933147,7
C2113-1,CARREFOUR- 360° MALL- ZAHRA,29.268894,47.992912,60
C2113-2,CARREFOUR - SALMIYA,29.338392,48.084713,60
C2113-3,CARREFOUR - SOUK JALEEB,29.251938,47.944572,60
C2113-4,CARREFOUR - FINTAS,29.176798,48.09449,60
C2113-5,CARREFOUR - SULAIBIKHAT,29.312063,47.863422,60
C2117,LONDON SHOPPING CENTRE (FOOD),29.323242,47.934338,60
C2118,LONDON SHOPPING CENTRE (NON-FOOD),29.323242,47.934338,60
C212,MUGHAL MAHAL RESTAURANT (SHARQ),29.377882,47.993012,30
C2125,NEW AL-BATEEL GOLDEN GROCERY,29.255871,47.936188,7
C2158,SOUK JAWAHRA AL BUSTAN,29.361265,47.965656,7
C2161,MATAHANA ABDULLAH GALOOM BLOUSHI,29.373619,47.973576,7
C2184,SOUK MAHAMEED AL SHABI - SHARQ,29.380776,47.990635,22
C2208,TAJ AL KUWAIT SUPERMARKET,29.37554,47.999023,7
C2222,GASTRONOMICA GENERAL TRADING CO.,29.291239,47.917206,30
C2232,BAKALA HADEER AL KUWAIT,29.367208,48.010769,7
C224,STORES AL MAIMI,29.361265,47.965656,7
C225,CEASARS RESTAURANT - GROUP,29.200089,48.050163,30
C2253,BAKALA NOUF AL WATAN,29.254698,47.934483,7
C2281,MATAM DESI TREAT,29.329798,48.06152,30
C2298-1,GRAND HYPER MARKET CENTER (FOOD) - FAHAHEEL,29.079231,48.133008,60
C2298-10,GRAND HYPER MARKET CENTER (FOOD) – Mahboula,29.143351,48.116356,60
C2298-11,GRAND HYPER MARKET CENTER (FOOD) – Mahboula2,29.155576,48.116315,60
C2298-12,GRAND HYPER MARKET CENTER (FOOD) – Farwaniya,29.276144,47.963074,60
C2298-13,GRAND HYPER MARKET CENTER (FOOD) – Al Rai,29.315144,47.959858,60
C2298-14,GRAND HYPER MARKET CENTER (FOOD) –Souk Al Mubarakeya,29.369301,47.971699,60
C2298-15,GRAND HYPERMARKET(FOOD) – COSTO KHAITAN 2,29.291987,47.968296,60
C2298-16,GRAND HYPERMARKET(FOOD) – COSTO FAHAHEEL 2,29.081978,48.131577,60
C2298-17,GRAND HYPERMARKET(FOOD) – COSTO MAHABOULA 3,29.150547,48.120422,60
C2298-18,GRAND HYPER MARKET CENTER  – Hawally 2,29.341576,48.019531,60
C2298-2,GRAND HYPER MARKET CENTER (FOOD) - QIBLA (SALHIYA),29.362205,47.964249,60
C2298-3,GRAND HYPER MARKET CENTER (FOOD) - Grand Fresh Mangaf,29.096172,48.131943,60
C2298-4,GRAND HYPER MARKET CENTER (FOOD) - Grand Fresh Abu Halifa,29.126372,48.126939,60
C2298-5,GRAND HYPER MARKET (FOOD) -(Regency Trading Warehouse),28.98241,48.080635,60
C2298-6,GRAND HYPER MARKET (FOOD) -(Central Market Hawally),29.339638,48.005688,60
C2298-7,GRAND HYPER MARKET CENTER (FOOD) - JALEEB,29.259939,47.941803,60
C2298-8,GRAND HYPERMARKET(FOOD) – HASAWI,29.264614,47.914005,60
C2298-9,GRAND HYPERMARKET(FOOD) – KHAITAN,29.291514,47.972925,60
C2304,BAKALA ZAVIYA,29.28573,47.976479,7
C2307-10,GRAND HYPER (NON-FOOD) - MAHBOULA,29.143351,48.116356,60
C2307-11,GRAND HYPER (NON-FOOD) - MAHBOULA 2,29.155576,48.116315,60
C2307-12,GRAND HYPER (NON-FOOD) - FARWANIYA,29.276144,47.963074,60
C2307-13,GRAND HYPER (NON-FOOD) - AL-RAI,29.315144,47.959858,60
C2307-14,GRAND HYPER (NON-FOOD) - SOUK (Al-Mubarakeya),29.369301,47.971699,60
C2307-15,GRAND HYPER (NON-FOOD) - KHAITAN 2 (Costo),29.291987,47.968296,60
C2307-16,GRAND HYPER (NON-FOOD) - FAHAHEEL 2 (Costo),29.081978,48.131577,60
C2307-17,GRAND HYPER (NON-FOOD) - MAHBOULA 3 (Costo),29.150547,48.120422,60
C2307-18,GRAND HYPER (NON-FOOD) - HAWALLY 2,29.341576,48.019531,60
C2307-2,GRAND HYPER (NON-FOOD) - SALHIYA (Kuwait City),29.362205,47.964249,60
C2307-3,GRAND HYPER (NON-FOOD) - WAREHOUSE (Mina Abdulla),28.98241,48.080635,60
C2307-4,GRAND HYPER (NON-FOOD) - ABU HALIFA (Grand Fresh),29.126372,48.126939,60
C2307-5,GRAND HYPER (NON-FOOD) - MANGAF (Grand Fresh),29.096172,48.131943,60
C2307-6,GRAND HYPER (NON-FOOD) - HAWALLY,29.339638,48.005688,60
C2307-7,GRAND HYPER (NON-FOOD) - JLEEB AL SHUYOUKH (ABBASIYA),29.259939,47.941803,60
C2307-8,GRAND HYPER (NON-FOOD) - JLEEB AL SHUYOUKH (HASSAWIA),29.264614,47.914005,60
C2307-9,GRAND HYPER (NON-FOOD) - KHAITAN,29.291514,47.972925,60
C2319,GOOD LIFE GEN TRADG CO.,29.291985,47.925045,30
C2321,BAKALA TIJA,29.361265,47.965656,7
C2322-0,LANDMARK RESTAURANT CO. W.L.L - MAIN,29.137977,48.13061,30
C2324,SOUK MUHAMEED AL ALAMIYA AL MARKAZI (NF),29.289797,47.97504,22
C2329,SOUK DOWAIHI AL MARKAZI,29.276331,47.971993,7
C2335,AL RAWAISHED TRADING EST. (KASHMIRI),29.371761,47.977169,7
C2337,SOUK ANWAR AL MUTTAHEDA AL MARKAZI,29.257353,47.930992,7
C2341,BAKALA FOUZIYA AL KHALEEJ,29.277399,47.955406,7
C2343,SOUK MALABAR AL MARKAZI (MALABAR STORE),29.139269,48.1199,7
C2348,BAKALA DANA AL MUDIA NO. 2,29.255756,47.924542,7
C2351,SHARIKAT AMANA AL KHALIJIYA,29.327334,47.930442,16
C2354,BAKALA AL FIDA STYLE,29.293615,47.967377,7
C2356,AHLAM AL KHALEEJ,29.256357,47.929913,7
C2367,SHARIKAT QUALITY INTL FOODSTUFF,29.326876,47.929348,16
C2370-1,ONCOST Sulaibiya (2101),29.253458,47.845116,60
C2370-10,Oncost Farwaniya-1 (2206),29.284697,47.96175,60
C2370-11,Oncost Farwaniya-2 (2212),29.280205,47.958103,60
C2370-12,Oncost Khaitan (2207),29.290957,47.972248,60
C2370-13,Oncost Nuqra (2209),29.338821,48.01564,60
C2370-14,Oncost Hawally -1 (2204),29.330233,48.019146,60
C2370-15,Oncost Fahaheel-2 (2213),29.082378,48.139145,60
C2370-16,Oncost Salwa (2214),29.282101,48.083153,60
C2370-17,Oncost Abbasiya-2 (2208),29.261831,47.941269,60
C2370-18,Oncost Salmiya mini 1 (2211),29.328425,48.058907,60
C2370-19,Oncost Salmiya mini 2 (2216),29.322678,48.059544,60
C2370-2,ONCOST Hawally 3 (2103),29.343721,48.017319,60
C2370-20,Oncost Abu Halifa (2215),29.126909,48.123077,60
C2370-3,ONCOST Fahaheel (2104),29.072235,48.113609,60
C2370-4,ONCOST Shuwaikh (2102),29.326759,47.925327,60
C2370-5,Oncost Abbasiya 1 (2202),29.259863,47.943687,60
C2370-7,Oncost Salmiya  1 (2205),29.338764,48.069374,60
C2370-8,Oncost Jahra (2210),29.339386,47.673447,60
C2370-9,Oncost Shuwaikh (2201),29.326759,47.925327,60
C2373-2,NESTO HYPERMARKET W.L.L (FOOD DIV.) - FARWANIYA,29.284586,47.960885,60
C2373-4,NESTO HYPERMARKET W.L.L (FOOD DIV.) – HAWALLY,29.333544,48.01812,60
C2373-5,NESTO HYPERMARKET W.L.L (FOOD DIV.) – Farwaniya # 2,29.282627,47.962948,60
C2373-6,NESTO HYPERMARKET W.L.L (FOOD DIV.) – Hawally # 2,29.335661,48.030731,60
C2377-2,NESTO HYPERMARKET W.L.L (B&W DIV.) - FARWANIYA,29.284586,47.960885,60
C2377-3,NESTO HYPERMARKET W.L.L (B&W DIV.) - HAWALLY,29.333544,48.01812,60
C2377-5,NESTO HYPERMARKET W.L.L - FARWANIYA(2) (KEY ACCOUNT),29.282627,47.962948,60
C2377-6,NESTO HYPERMARKET W.L.L (B&W DIV.)- Hawally(2),29.336166,48.03096,60
C2385-1,BLUE MART-FAHAHEEL,29.083807,48.129486,22
C2385-2,BLUE MART SUPERMARKET -KHAITAN,29.28974,47.972012,22
C2400-0,KABAYAN SHOPPING CENTER-Fahaheel,29.077858,48.134441,22
C2404,SABECO - Salmiya,29.143799,48.118362,30
C2428,SHERATON HOTEL,29.306965,47.92841,30
C2431-2,OLIVE SUPER & HYPER MARKET(BW) - MIRQAB,29.369169,47.978599,22
C2433-2,OLIVE SUPER & HYPER MARKET(FOOD) - MIRQAB,29.369169,47.978599,60
C2433-3,OLIVE SUPER & HYPER MARKET(FOOD) - RIQQAIE,29.306129,47.913986,60
C2433-4,OLIVE SUPER & HYPER MARKET WAREHOUSE(FOOD) - Fahaheel,28.976801,48.07658,60
C2433-5,OLIVE SUPER & HYPER MARKET(FOOD) - ABBASIA,29.259863,47.943687,60
C2433-6,OLIVE SUPER & HYPER MARKET(FOOD) - Hawally,29.335674,48.016098,60
C2450,Mango Hyper Market,29.256109,47.934395,22
C2451,Brand United Super Market,29.146946,48.119568,22
C2465,CHEF INTERNATIONAL,29.320791,47.927589,30
C2476,Legal - AALI AL HARBI GENERAL TRADING CO.,29.294142,47.918865,30
C2485,Sharikat Kuwait Fair Trade,29.322954,47.924389,30
C272,INDIAN COMMUNITY SCHOOL,29.329617,48.062107,30
C277,MOHAMED NASEER ABAS (G-21),29.373619,47.973576,7
C297-1,SUPERMARKET - Ministry of Interior (Prev Police) - MAIN SOUK,29.270628,48.004551,60
C297-2,SUPERMARKET - Ministry of Interior (Prev Police) - STORE,29.270628,48.004551,60
C297-5,SUPERMARKET - Ministry of Interior (Prev Police) - JUMLA,29.270628,48.004551,60
C297-7,SUPERMARKET - Ministry of Interior (Prev Police) -Spl Forces Sulaibiya ,29.292463,47.856567,60
C317,BAKALA HUDA,29.32605,48.062214,7
C324,BAKALA NAHIR UL AZRAQ,29.330282,48.067749,7
C339,KUWAIT REGENCY PALACE,29.316869,48.089217,30
C343,BAKER ABDULLAH,29.373619,47.973576,7
C344,BAKALA TABAK,29.373619,47.973576,16
C347,FAHAD KARNEEJ & SONS TRADING CO.,29.28746,47.958096,7
C369,NEHMAT DERWESHI,29.373619,47.973576,16
C385,BAKALA IKHTIYAR AL WALEED,29.258936,47.935871,7
C397,MOASES NAJJAR (Prev.Mohd Amanullah Karimi),29.322649,47.930061,16
C409,SHARIKAT BAKALA AL-NOOR SHABBIR,29.276331,47.971993,7
C417,BAKALA MARAKHE,29.287256,47.97702,7
C474,BAKALA NASSIM (INDIAN STORE),29.265654,47.943203,7
C484,CIVILIZED GULF STORE,29.257416,47.931191,7
C495,SAGAR RESTAURANT,29.079754,48.133766,30
C5002-1,SHAMIEH & SHUWAIKH COOP - SOUK - SHAMIEH,29.355501,47.965027,60
C5002-10,SHAMIEH & SHUWAIKH COOP - SHUWAIKH  B,29.354973,47.958736,60
C5002-11,SHAMIEH & SHUWAIKH COOP -  STORE PWC,29.274313,47.851143,60
C5002-12,SHAMIEH & SHUWAIKH COOP -  SOUK QIBLA,29.365141,47.962185,60
C5002-2,SHAMIEH & SHUWAIKH COOP - STORE,29.355501,47.965027,60
C5002-5,SHAMIEH & SHUWAIKH COOP - SHUWAIKH,29.355112,47.959011,60
C5002-7,SHAMIEH & SHUWAIKH COOP - HOSPITAL BRANCH,29.327452,47.902546,60
C5002-8,SHAMIEH & SHUWAIKH COOP - BRANCH8,29.350033,47.964657,60
C5002-9,SHAMIEH & SHUWAIKH COOP - BRANCH9,29.35544,47.966545,60
C5003-1,ABDULLAH SALEM & MANSOORIYA COOP - SOUK - D.ABD.SALEM,29.352856,47.979989,60
C5003-10,ABDULLAH SALEM & MANSOORIYA COOP - BAKALA(1) DAHIYA,29.355585,47.980604,60
C5003-11,ABDULLAH SALEM & MANSOORIYA COOP - BAKALA(4) DAHIYA,29.349658,47.977565,60
C5003-2,ABDULLAH SALEM & MANSOORIYA COOP - STORE - D.ABD.SALEM,29.352856,47.979989,60
C5003-4,ABDULLAH SALEM & MANSOORIYA COOP - SOUK - MANSOORIYA,29.360625,47.997196,60
C5003-5,ABDULLAH SALEM & MANSOORIYA COOP - STORE - MANSOORIYA,29.360625,47.997196,60
C5003-7,ABDULLAH SALEM & MANSOORIYA COOP - BAKALA(2) DAHIYA,29.353853,47.988899,60
C5003-8,ABDULLAH SALEM & MANSOORIYA COOP - BAKALA(3) DAHIYA,29.348188,47.98291,60
C5003-9,ABDULLAH SALEM & MANSOORIYA COOP - BAKALA(1) MANSOORIYA,29.361429,47.991977,60
C5004-1,FAIHA COOP - MAIN SOUK,29.338333,47.980404,60
C5004-2,FAIHA COOP - STORE,29.338333,47.980404,60
C5004-4,FAIHA COOP - BRANCH #7,29.335495,47.972527,60
C5004-5,FAIHA COOP - BRANCH9,29.335692,47.985138,60
C5004-6,FAIHA COOP - BRANCH QATA NO.6,29.34166,47.983566,60
C5005-1,NUZHA COOP - MAIN SOUK,29.341652,47.991585,60
C5005-4,NUZHA COOP - BRANCH 3,29.340572,47.99844,60
C5005-5,NUZHA COOP - BRANCH 1,29.345327,47.993591,60
C5005-6,NUZHA COOP - BRANCH 2,29.343891,47.986473,60
C5006-1,KHALDIYA COOP - MAIN SOUK,29.328001,47.962452,60
C5006-2,KHALDIYA COOP - STORE,29.328001,47.962452,60
C5006-4,KHALDIYA COOP - SHUWAIKH BRANCH,29.316227,47.947155,60
C5006-5,KHALDIYA COOP - BRANCH QATA NO.1,29.327398,47.95882,60
C5006-6,KHALDIYA COOP - BRANCH4,29.318867,47.963833,60
C5006-7,KHALDIYA COOP - QATA NO.3,29.320139,47.966999,60
C5007-1,YARMOUK COOP - MAIN SOUK,29.309919,47.969658,60
C5007-2,YARMOUK COOP - STORE,29.309919,47.969658,60
C5007-3,YARMOUK COOP - JUMLA,29.309919,47.969658,60
C5007-4,YARMOUK COOP - BRANCH QATA 4,29.313194,47.966099,60
C5007-5,YARMOUK COOP - BRANCH AL RAI,29.312597,47.948185,60
C5007-6,YARMOUK COOP - BRANCH QATA 3,29.305161,47.966782,60
C5007-7,YARMOUK COOP - BRANCH QATA 2,29.307507,47.974056,60
C5008-1,KAIFAN COOP - SOUK  NO.1,29.340124,47.962917,60
C5008-10,KAIFAN COOP - Branch 4 Qata 4,29.334373,47.967678,60
C5008-12,KAIFAN COOP - BRANCH 7- QATA NO. 7,29.335751,47.960281,60
C5008-13,KAIFAN COOP - Farrah Shuwaikh Sanahi,29.325418,47.93771,60
C5008-2,KAIFAN COOP - STORE,29.340124,47.962917,60
C5008-6,KAIFAN COOP - BRANCH3,29.34516,47.955673,60
C5008-8,KAIFAN COOP - FARRAH QATA NO. 1,29.339243,47.97147,60
C5008-9,KAIFAN COOP - BRANCH6 - QATA NO.6,29.336676,47.956635,60
C5009-1,ADAILIYA COOP - MAIN SOUK,29.32892,47.981197,60
C5009-2,ADAILIYA COOP - STORE,29.32892,47.981197,60
C5009-4,ADAILIYA COOP - QATA NO.2,29.323221,47.977417,60
C5009-5,ADAILIYA COOP - QATA NO.3,29.32328,47.986309,60
C5009-6,ADAILIYA COOP - STORE - SHUWAIKH,29.321503,47.929825,60
C5009-7,ADAILIYA COOP - QATA NO.1,29.329908,47.977497,60
C5009-8,ADAILIYA COOP - STORE TABRIED,29.32328,47.986309,60
C501-0,BAKALA FIVE FIVE (Prev Unique Mini Mart) - Main,29.256825,47.938034,7
C5010-1,QADSIYA COOP - MAIN SOUK,29.349306,48.003475,60
C5010-2,QADSIYA COOP - STORE,29.349306,48.003475,60
C5010-4,QADSIYA COOP - QATA 8,29.34606,48.005447,60
C5010-7,QADSIYA COOP - QATA NO. 4,29.344866,47.999191,60
C5011-1,ROWDAH & HAWALLY COOP - MAIN SOUK,29.329035,48.000107,60
C5011-10,ROWDAH & HAWALLY COOP - ROWDHA # 1 (QATA 1),29.325018,47.994801,60
C5011-11,ROWDAH & HAWALLY COOP - ROWDHA # 4 (QATA 4),29.334576,47.999207,60
C5011-12,ROWDAH & HAWALLY COOP - SOUK HAWALLY 4,29.344835,48.017414,60
C5011-13,ROWDAH & HAWALLY COOP - SOUK HAWALLY 5 (DAWAR AL KARD),29.338928,48.013821,60
C5011-14,ROWDAH & HAWALLY COOP - SOUK HAWALLY 6 (NUGRA),29.326029,48.011932,60
C5011-19,ROWDAH & HAWALLY COOP - SOUK HAWALLY 7,29.331436,48.021263,60
C5011-2,ROWDAH & HAWALLY COOP - STORE,29.329035,48.000107,60
C5011-3,ROWDAH & HAWALLY COOP - JUMLA,29.329035,48.000107,60
C5011-5,ROWDAH & HAWALLY COOP - SOUK HAWALLY 1,29.338848,48.020939,60
C5011-6,ROWDAH & HAWALLY COOP - SOUK HAWALLY 2,29.341938,48.009106,60
C5011-7,ROWDAH & HAWALLY COOP - ROWDHA # 3 (QATA 3),29.325333,48.005234,60
C5011-8,ROWDAH & HAWALLY COOP - ROWDHA # 5 (QATA 5),29.332863,47.993958,60
C5011-9,ROWDAH & HAWALLY COOP - HAWALLY 3 (KHARTOUM),29.333864,48.03635,60
C5012-12,SURRA COOP - NEW SOUK,29.312958,48.003105,60
C5012-2,SURRA COOP - STORE,29.312958,48.003105,60
C5012-3,SURRA COOP - JUMLA,29.314178,48.002846,60
C5012-4,SURRA COOP - SOUK 2,29.313154,48.015495,60
C5012-5,SURRA COOP - SOUK 6,29.319914,48.002678,60
C5012-6,SURRA COOP - QATA 3,29.312485,48.007858,60
C5013-1,SHAAB COOP - SOUK - SHAAB,29.350864,48.021383,60
C5013-2,SHAAB COOP - STORE,29.350864,48.021383,60
C5013-3,SHAAB COOP - JUMLA,29.351448,48.022251,60
C5013-6,SHAAB COOP - BRANCH 3,29.348288,48.025852,60
C5014-1,SALMIAH COOP - MAIN SOUK,29.338476,48.080162,60
C5014-11,SALMIAH COOP - AMMAN,29.324282,48.057228,60
C5014-12,SALMIAH COOP - QATA 12,29.320822,48.051201,60
C5014-14,SALMIAH COOP - BLAJAT,29.331406,48.091511,60
C5014-15,SALMIAH COOP - SOUK QATA 4 (Al Shuadaa),29.342043,48.080193,60
C5014-17,SALMIAH COOP - SOUK 2 (QATTA 10 - 203),29.327938,48.066292,60
C5014-2,SALMIAH COOP - STORE,29.338278,48.08038,60
C5014-3,SALMIAH COOP - JUMLA,29.338926,48.080303,60
C5014-5,SALMIAH COOP - SINDABAD,29.328516,48.048168,60
C5014-6,SALMIAH COOP - QANAHI,29.337774,48.091145,60
C5014-8,SALMIAH COOP - HAROUN AL RASHEED,29.335327,48.049557,60
C5014-9,SALMIAH COOP - BAHRAIN,29.327995,48.087116,60
C5015-1,RUMAITHYA COOP - MAIN SOUK,29.316648,48.078635,60
C5015-10,RUMAITHYA COOP - QATA 6,29.320896,48.083965,60
C5015-12,RUMAITHYA COOP - QATA 8,29.321672,48.074047,60
C5015-13,RUMAITHYA COOP - QATA 9,29.321148,48.070526,60
C5015-14,RUMAITHYA COOP - QATA 10,29.319408,48.066235,60
C5015-15,RUMAITHYA COOP - QATA 11,29.31629,48.060673,60
C5015-16,RUMAITHYA COOP - QATA 12,29.313244,48.057556,60
C5015-17,RUMAITHYA COOP - 24 Hours,29.32197,48.087605,60
C5015-2,RUMAITHYA COOP - STORE,29.316648,48.078635,60
C5015-4,RUMAITHYA COOP - STORE #2,29.316648,48.078635,60
C5015-5,RUMAITHYA COOP - QATA 1,29.308947,48.06226,60
C5015-6,RUMAITHYA COOP - QATA 2,29.31156,48.0672,60
C5015-7,RUMAITHYA COOP - QATA 3,29.312921,48.0728,60
C5015-8,RUMAITHYA COOP - QATA 4,29.312405,48.077366,60
C5015-9,RUMAITHYA COOP - QATA 5,29.312414,48.08234,60
C5016-2,JABRIYA COOP - STORE,29.321056,48.023527,60
C5016-4,JABRIYA COOP - BRANCH9,29.312025,48.028973,60
C5016-5,JABRIYA COOP - MUBARAKH BRANCH,29.326286,48.033402,60
C5016-6,JABRIYA COOP - BRANCH 12,29.315867,48.046654,60
C5016-7,JABRIYA COOP - BRANCH 5,29.316008,48.023121,60
C5016-8,JABRIYA COOP - MAIN SOUK,29.321056,48.023527,60
C5016-9,JABRIYA COOP - SOUK (Qata 7),29.317774,48.034374,60
C5018-1,DAHEIAH COOP - MAIN SOUK,29.357189,48.011193,60
C5018-2,DAHEIAH COOP - STORE,29.357189,48.011193,60
C5018-3,DAHEIAH COOP - JUMLA,29.358303,48.013905,60
C5018-5,DAHEIAH COOP - BAKALA NO.2,29.360874,48.010994,60
C5018-6,DAHEIAH COOP - FARRAH NO. 4,29.359987,48.016571,60
C5019-1,JAHRA COOP - SOUK - JAHRA,29.348654,47.67033,60
C5019-10,JAHRA COOP - WAHA NO.1,29.340515,47.662861,60
C5019-11,JAHRA COOP - QASR NO.1,29.34535,47.681839,60
C5019-12,JAHRA COOP - STORE NO.60 (Othman),29.346136,47.665123,60
C5019-13,JAHRA COOP - WAHA NO.3,29.33906,47.65258,60
C5019-15,JAHRA COOP - WAHA NO.4,29.340843,47.652245,60
C5019-17,JAHRA COOP - JAHRA NO.2 (Al Othman),29.346134,47.66534,60
C5019-18,JAHRA COOP - JAHRA NO.4 (Al Arbid),29.34181,47.674591,60
C5019-19,JAHRA COOP - WAHA NO.2,29.347038,47.658958,60
C5019-2,JAHRA COOP - STORE (Jahra),29.348913,47.672295,60
C5019-20,JAHRA COOP - WAHA NO. 5,29.347155,47.656113,60
C5019-21,JAHRA COOP - JUMLA NO. 2,29.339747,47.676632,60
C5019-22,JAHRA COOP - STORE JAHRA NO.4,29.341694,47.674454,60
C5019-23,JAHRA COOP - SOUK JAHRA 2,29.356449,47.673016,60
C5019-24,JAHRA COOP - JAHRA NO. 3 (Wara),29.350058,47.664002,60
C5019-26,JAHRA COOP - JAHRA NO. 1 (Al Bassam),29.351214,47.677746,60
C5019-3,JAHRA COOP - JUMLA,29.339733,47.676556,60
C5019-4,JAHRA COOP - STORE WAHA,29.347031,47.657242,60
C5019-5,JAHRA COOP - SOUK WAHA,29.344605,47.656899,60
C5019-8,JAHRA COOP - QASR NO.2,29.346853,47.691814,60
C5019-9,JAHRA COOP - QASR NO.6,29.348455,47.687126,60
C5020-1,SULAIBIKHAT & DOHA COOP - SOUK (DAHIYA),29.315208,47.847366,60
C5020-10,SULAIBIKHAT & DOHA COOP - BRANCH #1,29.243147,47.908196,60
C5020-11,SULAIBIKHAT & DOHA COOP - BRANCH3,29.317064,47.825935,60
C5020-12,SULAIBIKHAT & DOHA COOP - BRANCH4,29.314871,47.821552,60
C5020-14,SULAIBIKHAT & DOHA COOP - BRANCH2,29.316786,47.841503,60
C5020-15,SULAIBIKHAT & DOHA COOP - BRANCH5,29.315987,47.816807,60
C5020-16,SULAIBIKHAT & DOHA COOP - BRANCH6,29.315702,47.808773,60
C5020-2,SULAIBIKHAT & DOHA COOP - STORE,29.315653,47.847267,60
C5020-31,SULAIBIKHAT & DOHA COOP - BRANCH 1 - Block 1 (West),29.324333,47.804859,60
C5020-32,SULAIBIKHAT & DOHA COOP - BRANCH 2 - Block 3 (West),29.327221,47.815342,60
C5020-4,SULAIBIKHAT & DOHA COOP - SOUK - DOHA,29.318955,47.818565,60
C5020-5,SULAIBIKHAT & DOHA COOP - STORE - DOHA,29.319,47.818615,60
C5020-8,SULAIBIKHAT & DOHA COOP - BRANCH 7,29.314678,47.831825,60
C5021-1,ANDALUS & RIGGAE COOP - SOUK (Old),29.303591,47.881725,60
C5021-11,ANDALUS & RIGGAE COOP - QATTA# 7,29.304855,47.866428,60
C5021-12,ANDALUS & RIGGAE COOP - FARAH# 1- NAHADA,29.29879,47.860069,60
C5021-13,ANDALUS & RIGGAE COOP - SOUK AL-NAHDA,29.304621,47.857895,60
C5021-14,ANDALUS & RIGGAE COOP - SOUK DAHIYA (New),29.301628,47.900662,60
C5021-2,ANDALUS & RIGGAE COOP - STORE,29.301554,47.900147,60
C5021-4,ANDALUS & RIGGAE COOP - QATA NO. 12,29.304737,47.894093,60
C5021-7,ANDALUS & RIGGAE COOP - QATA NO. 13,29.300005,47.867554,60
C5022-1,SULAIBIYA COOP - MAIN SOUK,29.28863,47.823544,60
C5022-10,SULAIBIYA COOP - BAKALA NO.10,29.285086,47.820816,60
C5022-11,SULAIBIYA COOP - BAKALA NO.8,29.278643,47.829613,60
C5022-12,SULAIBIYA COOP - BAKALA NO.9,29.280806,47.825508,60
C5022-13,SULAIBIYA COOP - BAKALA NO.6,29.277437,47.835201,60
C5022-4,SULAIBIYA COOP - SOUK - SANAHIYA,29.272226,47.841778,60
C5022-5,SULAIBIYA COOP - BAKALA NO.2,29.29217,47.817074,60
C5022-6,SULAIBIYA COOP - BAKALA NO.3,29.292109,47.824093,60
C5022-7,SULAIBIYA COOP - BAKALA NO.5,29.281117,47.831688,60
C5022-8,SULAIBIYA COOP - BAKALA NO.1,29.292227,47.810242,60
C5022-9,SULAIBIYA COOP - BAKALA NO.7,29.272621,47.836445,60
C5023-1,FIRDOUS COOP - SOUK - FIRDOUS,29.283777,47.87257,60
C5023-10,FIRDOUS COOP - BRANCH7,29.28887,47.876652,60
C5023-11,FIRDOUS COOP - BRANCH8,29.292061,47.874714,60
C5023-12,FIRDOUS COOP - BRANCH9,29.279106,47.883266,60
C5023-13,FIRDOUS COOP - STORE PWC,29.274323,47.851204,60
C5023-2,FIRDOUS COOP - STORE,29.284075,47.871849,60
C5023-3,FIRDOUS COOP - JUMLA,29.290144,47.872795,60
C5023-4,FIRDOUS COOP - BRANCH1,29.290447,47.868324,60
C5023-5,FIRDOUS COOP - BRANCH2,29.287327,47.868897,60
C5023-6,FIRDOUS COOP - BRANCH3,29.280773,47.868206,60
C5023-7,FIRDOUS COOP - BRANCH4,29.280411,47.871231,60
C5023-8,FIRDOUS COOP - BRANCH5,29.279474,47.87804,60
C5023-9,FIRDOUS COOP - BRANCH6,29.282738,47.87954,60
C5024-1,ARDIYA COOP - SOUK1,29.282488,47.894943,60
C5024-10,ARDIYA COOP - BRANCH6,29.286242,47.899841,60
C5024-11,ARDIYA COOP - BRANCH8,29.28611,47.897556,60
C5024-12,ARDIYA COOP - BRANCH11,29.278889,47.892178,60
C5024-13,ARDIYA COOP - BRANCH1(QASAYIM),29.29545,47.900692,60
C5024-2,ARDIYA COOP - STORE,29.282215,47.894966,60
C5024-5,ARDIYA COOP - SOUK2,29.291161,47.895882,60
C5024-6,ARDIYA COOP - BRANCH10,29.286858,47.889572,60
C5024-7,ARDIYA COOP - BRANCH7,29.281134,47.901447,60
C5024-8,ARDIYA COOP - BRANCH2,29.291225,47.901951,60
C5024-9,ARDIYA COOP - BRANCH3,29.291832,47.889088,60
C5026-1,OMARIYA COOP - SOUK OMARIYA,29.29483,47.954384,60
C5026-2,OMARIYA COOP - STORE OMARIYA,29.294817,47.954338,60
C5026-4,OMARIYA COOP - BRANCH 1,29.299456,47.955204,60
C5026-5,OMARIYA COOP - BRANCH 2,29.299456,47.955204,60
C5026-6,OMARIYA COOP - BRANCH 3,29.296291,47.958469,60
C5026-7,OMARIYA COOP - BRANCH 4,29.298847,47.950855,60
C5026-8,OMARIYA COOP - BRANCH 5,29.291658,47.959675,60
C5027-1,FARWANIA COOP - MAIN SOUK,29.279678,47.960045,60
C5027-2,FARWANIA COOP - STORE,29.322374,47.928021,60
C5027-4,FARWANIA COOP - BRANCH # 5,29.271078,47.965656,60
C5027-5,FARWANIA COOP - BRANCH #4,29.286903,47.962612,60
C5027-6,FARWANIA COOP - BRANCH # 1,29.286696,47.954739,60
C5027-7,FARWANIA COOP - BRANCH # 2,29.279142,47.954067,60
C5027-8,FARWANIA COOP - BRANCH # 3,29.268873,47.955818,60
C5028-1,KHAITAN COOP - MAIN SOUK,29.296598,47.971279,60
C5028-10,KHAITAN COOP - BRANCH2,29.29958,47.974464,60
C5028-11,KHAITAN COOP - BRANCH4,29.279583,47.981792,60
C5028-12,KHAITAN COOP - BRANCH3,29.287409,47.981281,60
C5028-2,KHAITAN COOP - STORE,29.293804,47.970982,60
C5028-6,KHAITAN COOP - SABHAN BRANCH,29.229754,48.007011,60
C5028-7,KHAITAN COOP - BRANCH8,29.302313,47.970482,60
C5028-8,KHAITAN COOP - BRANCH9,29.281538,47.975311,60
C5028-9,KHAITAN COOP - BRANCH11,29.274418,47.984676,60
C5029-1,MISHREF COOP - MAIN SOUK,29.28096,48.068611,60
C5029-10,MISHREF COOP - BAKALA (QATA 4),29.277657,48.067696,60
C5029-12,MISHREF COOP - MUBARAK BAKALA 1 (QATA 1),29.281241,48.049805,60
C5029-13,MISHREF COOP - MUBARAK SOUK 3 (QATA 3),29.277508,48.039722,60
C5029-14,MISHREF COOP - BAKALA (QATA 5),29.271147,48.078243,60
C5029-15,MISHREF COOP - BAKALA (QATA 6),29.273106,48.044468,60
C5029-16,MISHREF COOP - MUBARAK MAIN SOUK (QATA 6),29.273184,48.04427,60
C5029-17,MISHREF COOP - MUBARAK BAKALA 2 (QATA 2),29.280289,48.044441,60
C5029-2,MISHREF COOP - STORE,29.282946,48.068241,60
C5029-4,MISHREF COOP - SOUK 24 HRS (QATA 2),29.289511,48.064659,60
C5029-5,MISHREF COOP - SOUK 6 (QATA 6),29.284281,48.054764,60
C5029-6,MISHREF COOP - SOUK 5 (QATA 5),29.269133,48.069508,60
C5029-7,MISHREF COOP - BAKALA (QATA 2),29.285324,48.065178,60
C5029-8,MISHREF COOP - BAKALA (QATA 1),29.284897,48.069931,60
C5029-9,MISHREF COOP - BAKALA (QATA 3),29.276083,48.076767,60
C5030-1,BAYAN COOP - SOUK 1 (Old),29.298826,48.053738,60
C5030-10,BAYAN COOP - BAKALA QATA NO.12,29.28936,48.05468,60
C5030-11,BAYAN COOP - BAKALA QATA NO.8,29.296448,48.055576,60
C5030-12,BAYAN COOP - BAKALA QATA NO.3,29.302855,48.042813,60
C5030-13,BAYAN COOP - BAKALA QATA NO.9,29.294439,48.05233,60
C5030-14,BAYAN COOP - SOUK 2 (New),29.304958,48.044659,60
C5030-16,BAYAN COOP - BAKALA QATA NO. 13,29.287128,48.048271,60
C5030-2,BAYAN COOP - STORE,29.304804,48.044151,60
C5030-4,BAYAN COOP - SOUK 24 HOUR,29.309755,48.045948,60
C5030-6,BAYAN COOP - BAKALA QATA NO.1,29.30715,48.052639,60
C5030-9,BAYAN COOP - BAKALA QATA NO.11,29.290546,48.058682,60
C5031-1,SABAH AL-SALEM  COOP - SOUK1,29.24987,48.065762,60
C5031-10,SABAH AL-SALEM  COOP - BRANCH  NO. 11 B,29.24691,48.077465,60
C5031-11,SABAH AL-SALEM  COOP - BRANCH NO. 11 A,29.247406,48.072781,60
C5031-12,SABAH AL-SALEM  COOP - BRANCH NO. 13 B,29.242746,48.054859,60
C5031-13,SABAH AL-SALEM  COOP - BRANCH-BAKALA NO.8,29.254688,48.067711,60
C5031-14,SABAH AL-SALEM  COOP - BRANCH-BAKALA NO.7,29.254259,48.07465,60
C5031-15,SABAH AL-SALEM  COOP - BRANCH-BAKALA NO.6,29.260879,48.049877,60
C5031-16,SABAH AL-SALEM  COOP - BRANCH-BAKALA NO.12,29.244852,48.065777,60
C5031-17,SABAH AL-SALEM  COOP - BRANCH NO. 5 A,29.258333,48.057465,60
C5031-18,SABAH AL-SALEM  COOP - BRANCH-BAKALA NO.4,29.259474,48.066841,60
C5031-19,SABAH AL-SALEM  COOP - BRANCH NO. 5 B,29.261608,48.062256,60
C5031-20,SABAH AL-SALEM  COOP - BRANCH-BAKALA NO.10,29.253233,48.051392,60
C5031-21,SABAH AL-SALEM  COOP - SOUK 3,29.258526,48.076077,60
C5031-22,SABAH AL-SALEM  COOP - SOUK N0. 4,29.249823,48.083462,60
C5031-4,SABAH AL-SALEM  COOP - SOUK2,29.256283,48.0513,60
C5031-5,SABAH AL-SALEM  COOP - STORE NO.2,29.256283,48.0513,60
C5031-6,SABAH AL-SALEM  COOP - BRANCH NO. 9 B,29.248903,48.056423,60
C5031-7,SABAH AL-SALEM  COOP - BRANCH NO. 9 C,29.253511,48.060757,60
C5031-8,SABAH AL-SALEM  COOP - BRANCH NO. 13 A,29.24579,48.051209,60
C5031-9,SABAH AL-SALEM  COOP - BRANCH NO. 9 A,29.24684,48.059902,60
C5032-1,RIKKA COOP - MAIN SOUK,29.144394,48.101021,60
C5032-10,RIKKA COOP - BRANCH2 (SOUTH - JANOUBI),29.152306,48.102161,60
C5032-2,RIKKA COOP - STORE,29.144768,48.101269,60
C5032-4,RIKKA COOP - BRANCH1,29.154612,48.104744,60
C5032-5,RIKKA COOP - BRANCH4,29.14723,48.106327,60
C5032-6,RIKKA COOP - BRANCH6,29.140451,48.108196,60
C5032-7,RIKKA COOP - BRANCH7,29.136736,48.105759,60
C5032-8,RIKKA COOP - BRANCH2 (NORTH - SHAMALI),29.156769,48.099434,60
C5032-9,RIKKA COOP - BRANCH3,29.148624,48.109409,60
C5033-1,HADIYA COOP - MAIN SOUK,29.150841,48.088333,60
C5033-2,HADIYA COOP - STORE,29.150311,48.089306,60
C5033-4,HADIYA COOP - QATA 3,29.14525,48.093811,60
C5033-5,HADIYA COOP - QATA 5 WEST,29.140564,48.091804,60
C5033-6,HADIYA COOP - QATA 5 EAST,29.141197,48.09597,60
C5033-7,HADIYA COOP - QATA 2,29.153074,48.08429,60
C5034-1,SABAHIYA COOP - MAIN SOUK,29.106751,48.107006,60
C5034-10,SABAHIYA COOP - BAKALA 3 B,29.117518,48.099445,60
C5034-11,SABAHIYA COOP - BAKALA 3 A,29.112656,48.099144,60
C5034-12,SABAHIYA COOP - BAKALA 2 B,29.095272,48.101254,60
C5034-13,SABAHIYA COOP - BAKALA 3 D,29.106829,48.101986,60
C5034-14,SABAHIYA COOP - BAKALA 4 B,29.116121,48.112362,60
C5034-19,SABAHIYA COOP - BAKALA 3 G,29.108946,48.098297,60
C5034-2,SABAHIYA COOP - STORE,29.105949,48.106796,60
C5034-4,SABAHIYA COOP - BAKALA 2 G,29.099831,48.102604,60
C5034-5,SABAHIYA COOP - BAKALA 2 A,29.102613,48.100323,60
C5034-6,SABAHIYA COOP - BAKALA 1 A,29.094442,48.112633,60
C5034-7,SABAHIYA COOP - BAKALA 1 G,29.098646,48.112301,60
C5034-8,SABAHIYA COOP - BAKALA 1 B,29.105114,48.114372,60
C5035-1,FAHAHEEL COOP - MAIN SOUK,29.085648,48.121071,60
C5035-10,FAHAHEEL COOP - SOUK 24 HRS.,29.089041,48.127403,60
C5035-12,FAHAHEEL COOP - BAKALA NO. 6,29.0891,48.121433,60
C5035-18,FAHAHEEL COOP - SOUK 2 (Al-Bahar),29.08703,48.137257,60
C5035-2,FAHAHEEL COOP - STORE,29.085197,48.12151,60
C5035-5,FAHAHEEL COOP - BAKALA NO.1,29.087898,48.117744,60
C5035-7,FAHAHEEL COOP - BAKALA NO.3,29.076315,48.12262,60
C5035-9,FAHAHEEL COOP - BAKALA NO. 4,29.079022,48.116238,60
C5036-10,MUBARAK AL KABEER & QURAIN COOP - BRANCH NO. 4,29.189671,48.067322,60
C5036-13,MUBARAK AL KABEER & QURAIN COOP - BRANCH NO. 13,29.203482,48.067158,60
C5036-14,MUBARAK AL KABEER & QURAIN COOP - BRANCH NO. 14,29.200924,48.065441,60
C5036-15,MUBARAK AL KABEER & QURAIN COOP - BRANCH NO. 15,29.195555,48.066044,60
C5036-19,MUBARAK AL KABEER & QURAIN COOP - BRANCH NO. 19,29.193249,48.079155,60
C5036-2,MUBARAK AL KABEER & QURAIN COOP - STORE,29.188307,48.07848,60
C5036-20,MUBARAK AL KABEER & QURAIN COOP - BRANCH NO. 20,29.193588,48.074333,60
C5036-21,MUBARAK AL KABEER & QURAIN COOP - BRANCH NO. 21,29.190081,48.075127,60
C5036-22,MUBARAK AL KABEER & QURAIN COOP - BRANCH NO. 22,29.186857,48.074688,60
C5036-23,MUBARAK AL KABEER & QURAIN COOP - BRANCH NO. 23,29.203503,48.090427,60
C5036-29,MUBARAK AL KABEER & QURAIN COOP - BRANCH NO. 29,29.198366,48.074181,60
C5036-30,MUBARAK AL KABEER & QURAIN COOP - BRANCH NO. 30,29.20713,48.083931,60
C5036-31,MUBARAK AL KABEER & QURAIN COOP - BRANCH NO. 31,29.200277,48.083447,60
C5036-32,MUBARAK AL KABEER & QURAIN COOP - BRANCH NO. 32,29.196835,48.081818,60
C5036-33,MUBARAK AL KABEER & QURAIN COOP - BRANCH NO. 33,29.195131,48.085922,60
C5036-35,MUBARAK AL KABEER & QURAIN COOP - BRANCH NO. 35,29.182587,48.084228,60
C5036-36,MUBARAK AL KABEER & QURAIN COOP - BRANCH NO. 36,29.184273,48.087261,60
C5036-38,MUBARAK AL KABEER & QURAIN COOP - BRANCH NO. 38,29.192446,48.084728,60
C5036-39,MUBARAK AL KABEER & QURAIN COOP - BRANCH NO. 39,29.188044,48.082676,60
C5036-4,MUBARAK AL KABEER & QURAIN COOP - SOUK 3,29.202614,48.077419,60
C5036-40,MUBARAK AL KABEER & QURAIN COOP - BRANCH NO. 40,29.208157,48.075207,60
C5036-41,MUBARAK AL KABEER & QURAIN COOP - BRANCH NO. 41,29.192757,48.095081,60
C5036-47,MUBARAK AL KABEER & QURAIN COOP - BRANCH NO. 47,29.182545,48.095203,60
C5036-5,MUBARAK AL KABEER & QURAIN COOP - SOUK 4,29.188444,48.078907,60
C5036-6,MUBARAK AL KABEER & QURAIN COOP - SOUK 5,29.186586,48.095219,60
C5036-7,MUBARAK AL KABEER & QURAIN COOP - BRANCH NO. 1,29.181864,48.078819,60
C5036-8,MUBARAK AL KABEER & QURAIN COOP - BRANCH NO. 2,29.180925,48.073341,60
C5036-9,MUBARAK AL KABEER & QURAIN COOP - BRANCH NO. 3,29.187414,48.069435,60
C5037-1,FINTAS COOP - SOUK - FINTAS,29.171354,48.119705,60
C5037-10,FINTAS COOP - BLOCK 3,29.167625,48.113815,60
C5037-11,FINTAS COOP - ABU AL-HASANIYA BRANCH (Al-Shaheed),29.204533,48.109108,60
C5037-12,FINTAS COOP - MASILA BRANCH,29.23361,48.099129,60
C5037-2,FINTAS COOP - STORE,29.170754,48.119846,60
C5037-7,FINTAS COOP - BLOCK 1,29.179975,48.116573,60
C5038-1,ALI SABAH AL SALEM (UMM AL-HAIMAN) COOP - MAIN SOUK,28.96328,48.159752,60
C5038-10,ALI SABAH AL SALEM (UMM AL-HAIMAN) COOP - BR.2 (QATA 2),28.947239,48.153023,60
C5038-11,ALI SABAH AL SALEM (UMM AL-HAIMAN) COOP - BR.1 (QATA 5),28.959978,48.16235,60
C5038-12,ALI SABAH AL SALEM (UMM AL-HAIMAN) COOP - BR.1 (QATA 4),28.955013,48.161274,60
C5038-13,ALI SABAH AL SALEM (UMM AL-HAIMAN) COOP - BR.2 (QATA 5),28.955504,48.166618,60
C5038-14,ALI SABAH AL SALEM (UMM AL-HAIMAN) COOP - BR.2 (QATA 4),28.950514,48.153938,60
C5038-15,ALI SABAH AL SALEM (UMM AL-HAIMAN) COOP - BR.1 (QATA 8),28.966043,48.144821,60
C5038-16,ALI SABAH AL SALEM (UMM AL-HAIMAN) COOP - BR.1 (QATA 9),28.967133,48.155338,60
C5038-17,ALI SABAH AL SALEM (UMM AL-HAIMAN) COOP - BR.1 (QATA 7),28.959005,48.154205,60
C5038-18,ALI SABAH AL SALEM (UMM AL-HAIMAN) COOP - SOUK2,28.954308,48.149452,60
C5038-2,ALI SABAH AL SALEM (UMM AL-HAIMAN) COOP - STORE,28.962439,48.159229,60
C5038-4,ALI SABAH AL SALEM (UMM AL-HAIMAN) COOP - BR.1 (QATA 2),28.949215,48.147717,60
C5038-5,ALI SABAH AL SALEM (UMM AL-HAIMAN) COOP - BR.2 (QATA 7),28.961389,48.150642,60
C5038-6,ALI SABAH AL SALEM (UMM AL-HAIMAN) COOP - BR.1 (QATA 6),28.952988,48.15305,60
C5038-7,ALI SABAH AL SALEM (UMM AL-HAIMAN) COOP - BR.2 (QATA 3),28.957491,48.142883,60
C5038-8,ALI SABAH AL SALEM (UMM AL-HAIMAN) COOP - BR.1 (QATA 3),28.960884,48.145428,60
C5038-9,ALI SABAH AL SALEM (UMM AL-HAIMAN) COOP - BR.1 (QATA 1),28.952356,48.142384,60
C5039-1,SABAH AL NASER COOP - MAIN SOUK,29.269867,47.875136,60
C5039-10,SABAH AL NASER COOP - BRANCH 8,29.270697,47.906735,60
C5039-2,SABAH AL NASER COOP - STORE,29.269859,47.87508,60
C5039-4,SABAH AL NASER COOP - BRANCH3,29.273296,47.882774,60
C5039-5,SABAH AL NASER COOP - BRANCH 4,29.272242,47.886257,60
C5039-6,SABAH AL NASER COOP - BRANCH 5,29.269075,47.888382,60
C5039-7,SABAH AL NASER COOP - BRANCH 2,29.269522,47.867401,60
C5039-8,SABAH AL NASER COOP - BRANCH 6,29.270983,47.898041,60
C5039-9,SABAH AL NASER COOP - BRANCH 7,29.275465,47.897705,60
C5040-1,DAHER COOP - MAIN SOUK,29.167482,48.064369,60
C5040-2,DAHER COOP - STORE - AL DAHER,29.167374,48.064289,60
C5040-4,DAHER COOP - BRANCH2,29.164763,48.069962,60
C5040-5,DAHER COOP - BRANCH3,29.160461,48.070793,60
C5040-6,DAHER COOP - BRANCH4,29.157946,48.065144,60
C5040-7,DAHER COOP - BRANCH5,29.161808,48.058392,60
C5040-8,DAHER COOP - BRANCH6,29.166746,48.060783,60
C5040-9,DAHER COOP - BRANCH1,29.17218,48.067242,60
C5042-1,SALWA COOP - MAIN SOUK,29.296999,48.077574,60
C5042-10,SALWA COOP - BRANCH 6,29.299725,48.070065,60
C5042-2,SALWA COOP - STORE,29.297613,48.076965,60
C5042-5,SALWA COOP - QATA NO.12,29.275087,48.085575,60
C5042-6,SALWA COOP - BRANCH 2,29.306642,48.072067,60
C5042-7,SALWA COOP - QATA NO.8,29.293873,48.080448,60
C5042-8,SALWA COOP - BRANCH 10,29.286184,48.078388,60
C5042-9,SALWA COOP - BRANCH 4,29.303684,48.081135,60
C5043-1,QORTUBA COOP - MAIN SOUK,29.313654,47.985031,60
C5043-2,QORTUBA COOP - STORE,29.313116,47.985752,60
C5043-4,QORTUBA COOP - BRANCH NO:4,29.313953,47.980503,60
C5044-1,JABER AL-ALI COOP - MAIN SOUK,29.17329,48.077206,60
C5044-10,JABER AL-ALI COOP - BRANCH QATA 7 (A),29.173113,48.089748,60
C5044-11,JABER AL-ALI COOP - BRANCH QATA 7 (B),29.168264,48.089172,60
C5044-12,JABER AL-ALI COOP - QATA 1,29.177362,48.087338,60
C5044-2,JABER AL-ALI COOP - STORE,29.171635,48.079224,60
C5044-4,JABER AL-ALI COOP - BRANCH QATA 2 (B),29.175087,48.075489,60
C5044-5,JABER AL-ALI COOP - BRANCH QATA 2 (A),29.175255,48.075245,60
C5044-6,JABER AL-ALI COOP - BRANCH QATA 6,29.16139,48.088833,60
C5044-7,JABER AL-ALI COOP - BRANCH QATA 3,29.176523,48.080421,60
C5044-8,JABER AL-ALI COOP - BRANCH QATA 4,29.160084,48.080883,60
C5044-9,JABER AL-ALI COOP - BRANCH QATA 8,29.169451,48.082848,60
C5045-1,ADAN & QUSOOR COOP - SOUK 1 (Addan),29.236666,48.064575,60
C5045-13,ADAN & QUSOOR COOP - BRANCH1,29.23707,48.059425,60
C5045-14,ADAN & QUSOOR COOP - BRANCH2,29.236874,48.055828,60
C5045-15,ADAN & QUSOOR COOP - BRANCH3,29.234755,48.059696,60
C5045-16,ADAN & QUSOOR COOP - BRANCH4,29.231819,48.057713,60
C5045-18,ADAN & QUSOOR COOP - BRANCH6,29.225407,48.057823,60
C5045-19,ADAN & QUSOOR COOP - BRANCH8,29.231588,48.067856,60
C5045-20,ADAN & QUSOOR COOP - BRANCH9,29.24019,48.066627,60
C5045-21,ADAN & QUSOOR COOP - BRANCH11,29.241489,48.074276,60
C5045-22,ADAN & QUSOOR COOP - BRANCH13,29.23436,48.074787,60
C5045-23,ADAN & QUSOOR COOP - BRANCH15,29.219368,48.068321,60
C5045-24,ADAN & QUSOOR COOP - BRANCH16,29.218737,48.059544,60
C5045-25,ADAN & QUSOOR COOP - BRANCH18,29.210917,48.064014,60
C5045-26,ADAN & QUSOOR COOP - BRANCH19,29.212004,48.073959,60
C5045-27,ADAN & QUSOOR COOP - BRANCH21,29.219212,48.083099,60
C5045-28,ADAN & QUSOOR COOP - BRANCH22,29.219213,48.079193,60
C5045-34,ADAN & QUSOOR COOP - COLD STORE,29.2152,48.074768,60
C5045-36,ADAN & QUSOOR COOP - SOUK 3 (Addan),29.235792,48.079182,60
C5045-37,ADAN & QUSOOR COOP - BRANCH10,29.242199,48.08115,60
C5045-38,ADAN & QUSOOR COOP - BRANCH14,29.229185,48.079941,60
C5045-39,ADAN & QUSOOR COOP - BRANCH17,29.215912,48.061809,60
C5045-4,ADAN & QUSOOR COOP - SOUK 2 (Qusoor),29.215336,48.074936,60
C5045-43,ADAN & QUSOOR COOP - BRANCH20,29.21213,48.084686,60
C5045-46,ADAN & QUSOOR COOP - BRANCH12,29.236618,48.082169,60
C5045-47,ADAN & QUSOOR COOP - STORE (SOUK 2),29.215262,48.074871,60
C5045-6,ADAN & QUSOOR COOP - BRANCH7,29.224484,48.062656,60
C5046-1,RIHAB COOP - MAIN SOUK,29.285482,47.940178,60
C5046-10,RIHAB COOP - BRANCH 6,29.2855,47.940212,60
C5046-2,RIHAB COOP - STORE,29.285608,47.939991,60
C5046-4,RIHAB COOP - BRANCH 1,29.281729,47.941952,60
C5046-5,RIHAB COOP - BRANCH 3,29.28496,47.946354,60
C5046-6,RIHAB COOP - BRANCH 5,29.281784,47.935062,60
C5046-9,RIHAB COOP - BRANCH 4,29.285341,47.9361,60
C5047-1,NASEEM COOP - SOUK NASEEM,29.323517,47.670841,60
C5047-15,NASEEM COOP - NASEEM NO.2,29.320818,47.676903,60
C5047-18,NASEEM COOP - AYOUN NO.4,29.327351,47.650944,60
C5047-2,NASEEM COOP - STORE NASEEM,29.322319,47.672977,60
C5047-20,NASEEM COOP - AYOUN NO.5,29.334597,47.652828,60
C5047-22,NASEEM COOP - NASEEM NO.5,29.324905,47.664024,60
C5047-23,NASEEM COOP - NASEEM NO. 3,29.323603,47.675861,60
C5047-25,NASEEM COOP - NASEEM NO.4,29.319687,47.67487,60
C5047-30,NASEEM COOP - NASEEM NO. 1,29.322908,47.665474,60
C5047-37,NASEEM COOP - NASEEM NO. 6,29.326048,47.666866,60
C5047-38,NASEEM COOP - NASEEM NO. 10,29.315508,47.684853,60
C5047-39,NASEEM COOP - NASEEM NO. 7,29.320755,47.686932,60
C5047-4,NASEEM COOP - AYOUN NO.1,29.33292,47.662094,60
C5047-40,NASEEM COOP - NASEEM NO. 8 (Block 3),29.320822,47.682488,60
C5047-5,NASEEM COOP - AYOUN NO.2,29.327778,47.659977,60
C5047-6,NASEEM COOP - AYOUN NO.3,29.327351,47.650944,60
C5047-8,NASEEM COOP - STORE AYOUN,29.330664,47.657806,60
C5047-9,NASEEM COOP - SOUK AYOUN,29.329325,47.656372,60
C5048-1,AHMADI COOP - MAIN SOUK,29.077368,48.082062,60
C5048-2,AHMADI COOP - STORE,29.077841,48.082615,60
C5049-1,ZAHRA COOP - MAIN SOUK,29.278631,48.003723,60
C5049-2,ZAHRA COOP - STORE,29.280411,48.006088,60
C5049-4,ZAHRA COOP - BRANCH 3,29.283869,47.990658,60
C5049-5,ZAHRA COOP - BRANCH 1,29.273661,48.009777,60
C5050-0,MADINA SAAD AL ABDULLA COOP - SOUK 1 (QATTA 2),29.307476,47.715992,60
C5050-1,MADINA SAAD AL ABDULLA COOP - BRANCH 4,29.30394,47.719772,60
C5050-12,MADINA SAAD AL ABDULLA COOP - SOUK 2 (QATA 5),29.307777,47.695324,60
C5050-13,MADINA SAAD AL ABDULLA COOP - BRANCH 11(A),29.323372,47.737087,60
C5050-14,MADINA SAAD AL ABDULLA COOP - BRANCH 8(G),29.316389,47.719093,60
C5050-15,MADINA SAAD AL ABDULLA COOP - BRANCH 8(B),29.317267,47.714367,60
C5050-16,MADINA SAAD AL ABDULLA COOP - BRANCH 9(A),29.301216,47.72855,60
C5050-17,MADINA SAAD AL ABDULLA COOP - BRANCH 10(B),29.318638,47.733425,60
C5050-18,MADINA SAAD AL ABDULLA COOP - BRANCH 11(B),29.323978,47.741489,60
C5050-19,MADINA SAAD AL ABDULLA COOP - BRANCH 9(G),29.308872,47.729618,60
C5050-2,MADINA SAAD AL ABDULLA COOP - BRANCH 5,29.310839,47.696228,60
C5050-20,MADINA SAAD AL ABDULLA COOP - STORE (QATTA 2),29.307669,47.716229,60
C5050-21,MADINA SAAD AL ABDULLA COOP - SOUK 3 (QATTA 8),29.320118,47.723206,60
C5050-22,MADINA SAAD AL ABDULLA COOP - BRANCH 8(A),29.322613,47.724266,60
C5050-23,MADINA SAAD AL ABDULLA COOP - BRANCH 9(B),29.306183,47.729198,60
C5050-24,MADINA SAAD AL ABDULLA COOP - BRANCH 10(A),29.314545,47.729694,60
C5050-27,MADINA SAAD AL ABDULLA COOP - STORE (QATA 10),29.309959,47.734085,60
C5050-28,MADINA SAAD AL ABDULLA COOP - SOUK 4 (QATTA 10),29.310032,47.734436,60
C5050-3,MADINA SAAD AL ABDULLA COOP - BRANCH 6,29.305687,47.688301,60
C5050-4,MADINA SAAD AL ABDULLA COOP - BRANCH 7,29.304512,47.700844,60
C5050-5,MADINA SAAD AL ABDULLA COOP - BRANCH 1,29.309193,47.720608,60
C5050-6,MADINA SAAD AL ABDULLA COOP - BRANCH 3,29.303494,47.707256,60
C5050-7,MADINA SAAD AL ABDULLA COOP - BRANCH 2,29.31156,47.710758,60
C5051-1,ABDULLA AL MUBARAK COOP - MAIN SOUK,29.243574,47.894642,60
C5051-10,ABDULLA AL MUBARAK COOP - BRANCH 7,29.23822,47.894936,60
C5051-11,ABDULLA AL MUBARAK COOP - BRANCH 8,29.2453,47.888264,60
C5051-12,ABDULLA AL MUBARAK COOP - BRANCH 9,29.252733,47.881084,60
C5051-2,ABDULLA AL MUBARAK COOP - STORE,29.243967,47.895153,60
C5051-3,ABDULLA AL MUBARAK COOP - SOUK 2,29.242256,47.912399,60
C5051-4,ABDULLA AL MUBARAK COOP - BRANCH 1,29.24316,47.922905,60
C5051-5,ABDULLA AL MUBARAK COOP - BRANCH 2,29.238163,47.9142,60
C5051-6,ABDULLA AL MUBARAK COOP - BRANCH 3,29.243177,47.908409,60
C5051-7,ABDULLA AL MUBARAK COOP - BRANCH 4,29.236175,47.907036,60
C5051-8,ABDULLA AL MUBARAK COOP - BRANCH 5,29.24408,47.901131,60
C5051-9,ABDULLA AL MUBARAK COOP - BRANCH 6,29.233938,47.900192,60
C5052-1,QAIRWAN COOP - MAIN SOUK,29.3036,47.801319,60
C5052-2,QAIRWAN COOP - STORE,29.303432,47.800822,60
C5052-5,QAIRWAN COOP - BAKALA (1),29.299109,47.810211,60
C5052-6,QAIRWAN COOP - BAKALA (3),29.305096,47.790138,60
C5053-2,SHUHADA COOP - BRANCH 5,29.274504,48.032024,60
C5053-4,SHUHADA COOP - STORE,29.270044,48.033062,60
C5055-0,HATEEN COOP - MAIN SOUK,29.281107,48.018868,60
C5055-1,HATEEN COOP - STORE,29.281195,48.018581,60
C5055-3,HATEEN COOP - QATA 1,29.2854,48.027561,60
C5055-4,HATEEN COOP - QATA 2,29.285648,48.017002,60
C5055-5,HATEEN COOP - QATA 2B,29.286829,48.010773,60
C5055-6,HATEEN COOP - QATA 3,29.281498,48.02388,60
C5060-0,MANGAF COOP - SOUK MANGAF (OLD),29.101814,48.119705,60
C5060-1,MANGAF COOP - SOUK MANGAF (NEW),29.107119,48.12252,60
C5060-2,MANGAF COOP - BAKALA 1A MANGAF,29.11236,48.126327,60
C5060-3,MANGAF COOP - BAKALA 1B MANGAF,29.114656,48.131428,60
C5060-4,MANGAF COOP - BAKALA 4 MANGAF,29.103836,48.132954,60
C5060-5,MANGAF COOP - BAKALA # 60,29.093847,48.120594,60
C5060-6,MANGAF COOP - MAIN SOUK,29.104582,48.124794,60
C5060-7,MANGAF COOP - STORE,29.104746,48.126156,60
C5061-1,JABER AL AHMAD COOP-MAIN SOUK,29.353003,47.755119,60
C5061-10,JABER AL AHMAD COOP-BRANCH 13 - QATTA 7,29.348196,47.770348,60
C5061-11,JABER AL AHMAD COOP- Souk 3 - QATTA 7,29.352732,47.77087,60
C5061-12,JABER AL AHMAD COOP-BRANCH 11 - QATTA 6,29.358742,47.760254,60
C5061-13,JABER AL AHMAD COOP-BRANCH 10 - QATTA 6,29.347878,47.755936,60
C5061-14,JABER AL AHMAD COOP-BRANCH 16 - QATTA 7,29.355936,47.76598,60
C5061-15,JABER AL AHMAD COOP-BRANCH 7 - QATTA 5,29.353523,47.746162,60
C5061-2,JABER AL AHMAD COOP-STORE,29.352169,47.754837,60
C5061-3,JABER AL AHMAD COOP-BRANCH 1 - QATTA 1,29.336798,47.786663,60
C5061-4,JABER AL AHMAD COOP-BRANCH 2 - QATTA 1,29.325493,47.777042,60
C5061-5,JABER AL AHMAD COOP-BRANCH 3 - QATTA 2,29.338947,47.770954,60
C5061-6,JABER AL AHMAD COOP-BRANCH 4 - QATTA 2,29.333612,47.76133,60
C5061-7,JABER AL AHMAD COOP-BRANCH 12 - QATTA 6,29.350433,47.763313,60
C5061-8,JABER AL AHMAD COOP-BRANCH 9 - QATTA 6,29.356466,47.752422,60
C5061-9,JABER AL AHMAD COOP-BRANCH 5 - QATTA 5,29.345428,47.750309,60
C5062-2,FAHAD AL AHMAD COOP- Store,29.136921,48.105854,60
C5062-3,FAHAD AL AHMAD COOP - BAKALA 1,29.130211,48.112137,60
C5062-4,FAHAD AL AHMAD COOP - BAKALA 2,29.130104,48.096371,60
C5062-5,FAHAD AL AHMAD COOP - BAKALA 4 B,29.125361,48.099152,60
C5062-6,FAHAD AL AHMAD COOP - BAKALA 4 A,29.126785,48.094223,60
C5062-7,FAHAD AL AHMAD COOP - BAKALA 3,29.124596,48.112839,60
C5063-1,NAEEM COOP - Store NAEEM,29.331045,47.695164,60
C5063-10,NAEEM COOP - Branch QASR 3,29.341471,47.699581,60
C5063-12,NAEEM COOP - Branch QASR 5,29.334806,47.704567,60
C5063-13,NAEEM COOP - Branch TAIMA 1,29.328114,47.692032,60
C5063-14,NAEEM COOP - Branch TAIMA 2,29.329546,47.66943,60
C5063-15,NAEEM COOP - Branch TAIMA 3,29.323898,47.689991,60
C5063-16,NAEEM COOP - Branch TAIMA 5,29.332005,47.670158,60
C5063-17,NAEEM COOP - Branch TAIMA 4,29.323898,47.689991,60
C5063-2,NAEEM COOP - Store QASR,29.335617,47.700138,60
C5063-3,NAEEM COOP - Store TAIMA,29.327793,47.680275,60
C5063-4,NAEEM COOP - Souk NAEEM,29.33635,47.699474,60
C5063-5,NAEEM COOP - Souk QASR,29.336746,47.699273,60
C5063-6,NAEEM COOP - Souk TAIMA,29.328018,47.680359,60
C5063-7,NAEEM COOP - Branch NAEEM 1,29.331594,47.702213,60
C5063-8,NAEEM COOP - Branch NAEEM 2,29.328022,47.699581,60
C5063-9,NAEEM COOP - Branch NAEEM 3,29.334984,47.692722,60
C5064-0,ABU FATERA COOP - MAIN,29.197859,48.101131,60
C5064-2,ABU FATERA COOP - Store,29.197857,48.101303,60
C5065-0,GARNATA COOP – OLD SOUK,29.31241,47.879002,60
C5065-1,GARNATA COOP – STORE PWC,29.274321,47.851135,60
C5066-1,EGAILA COOP - MAIN SOUK,29.180236,48.105368,60
C5066-2,EGAILA COOP - STORE,29.169666,48.10191,60
C5066-3,EGAILA COOP - BRANCH 1,29.179974,48.105396,60
C5066-4,EGAILA COOP - BRANCH 2,29.173998,48.106174,60
C5066-5,EGAILA COOP - BRANCH 3,29.164618,48.107586,60
C5068-1,ABDALLY COOP - STORE,30.013819,47.788509,60
C5068-2,ABDALLY COOP - QASHANIYA SOUQ,30.027813,47.772644,60
C5068-3,ABDALLY COOP - ROWDATAIN SOUQ,29.870739,47.68248,60
C5068-4,ABDALLY COOP - ROWDATAIN (Almotawar),29.930185,47.686825,60
C5068-5,ABDALLY COOP - MUTLAAH,29.410233,47.644428,60
C5068-7,ABDALLY COOP - UMM AL-NAQAA,29.957039,47.841202,60
C508,AL ABRAR SUPERMARKET,29.078766,48.133595,30
C518,MARAD BANGLADESH AL MUWAD GEZAYE,29.080397,48.132973,7
C536,FAHAHEEL GENERAL STORE,29.080397,48.132973,7
C541,NAWADAR SUPERMARKET,29.078766,48.133595,22
C546,BAKALA SAFSAF (ABDULLAH KERELA STORE),29.082457,48.123615,7
C569,NEW JANTA STORE,29.080397,48.132973,7
C654,SOUK DANAT AL AHMADI,29.07996,48.08186,22
C661,BAKALA ROYAL PALACE (Prev FLOWER FOOD STUFF STORE),29.267199,47.966915,7
C681,INDIAN GROCERY(GAFFOUR),29.26053,47.925014,7
C735,GULF STORE,29.300089,47.907879,7
C747,KUWAIT AIRWAYS (SUPPLIES & HOUSING DEPT),29.24132,47.975939,30
C749,SULAIMAN BILLAL RASHID (SHOP NO.84),29.373619,47.973576,7
C754-0,AL HOMAIZI FOOD STUFF CO. - MAIN,29.238045,48.005722,30
C764-1,DEFENCE MINISTRY - MAIN SOUK,29.314185,47.919049,60
C764-3,DEFENCE MINISTRY - JUMLA,29.314185,47.919049,60
C764-4,DEFENCE MINISTRY - SABHAN AREA,29.240362,48.032936,60
C764-6,DEFENCE MINISTRY - EXHIBITION,29.312807,47.918266,60
C770-1,HADI CLINIC - HOSPITAL CLINIC,29.321881,48.046086,30
C773,KUWAIT AVIATION SERVICES CO.(KASCO),29.259003,47.966458,30
C779,MESSILAH BEACH HOTEL - KUWAIT,29.269083,48.088855,30
C804,AL KARAM AL ARABI,29.296413,47.922878,30
C830,DRAIEH GENERAL TRADING CO. W.L.L.,29.289152,47.922646,30
C870,MIAMI FOR LESS SUPER MARKET,29.33296,48.007446,22
C873,MATAAM KASRA AL NAKHEEL-PALM PALACE REST,29.338299,48.063393,30
C92-1,THE SULTAN CENTER (206183) - SALMIYA,29.342529,48.0746,60
C92-10,THE SULTAN CENTER (206183) - AHMADI SUPERMARKET,29.079227,48.068649,60
C92-11,THE SULTAN CENTER (206183) - MANGAF WHOLESALE CENTER,29.102295,48.125286,60
C92-13,THE SULTAN CENTER (206183) - DAJEEJ WHOLESALE CENTER (NEW),29.261229,47.9659,60
C92-14,THE SULTAN CENTER (206183) - FAHAHEEL (AL-KOUT),29.079758,48.141289,60
C92-16,THE SULTAN CENTER (206183) - SULAIBIYA WHOLESALE CENTER,29.274704,47.846878,60
C92-17,THE SULTAN CENTER (206183) - HAWALLY,29.341274,48.030033,60
C92-18,THE SULTAN CENTER (206183) - JABRIYA,29.316248,48.046211,60
C92-21,THE SULTAN CENTER (206183) - HAWALLY (THE PROMENADE),29.346838,48.012577,60
C92-22,THE SULTAN CENTER (206183) - EGAILA,29.168943,48.099518,60
C92-23,THE SULTAN CENTER (206183) - SALMIYA (BOULEVARD),29.33062,48.077892,60
C92-5,THE SULTAN CENTER (206183) - SHARQ (SOUQ SHARQ),29.388342,47.979973,60
C92-6,THE SULTAN CENTER (206183) - FAHAHEEL,29.073109,48.122665,60
C92-8,THE SULTAN CENTER (206183) - SHUWAIKH WHOLESALE CENTER,29.31448,47.930801,60
C92-9,THE SULTAN CENTER (206183) - SALWA,29.293974,48.083607,60
C994,KHAN BABA RESTAURANT,29.078501,48.132584,30
C1008-56,CASH SALE A/C (AMRIT) - SINGAREA ENTERPRISES- Al Rai,29.304337,47.9287,30
C1527,BAKALA SHARIKAT NAFCO,29.140663,48.122929,7
C16-2,HARAS AL WATANI COOP - STORE,29.312424,47.911412,60
C2510,Al Mufaas General Trading Co,29.328541,47.925888,30
C2513,F K Logistic Group,29.19615,47.993816,30
C351,HASSAN JAWAD MOHD,29.373619,47.973576,7
C5005-2,NUZHA COOP - STORE,29.341652,47.991585,60
C5013-4,SHAAB COOP - BRANCH AL BAHRI,29.355009,48.026821,60
C5013-5,SHAAB COOP - BRANCH 6,29.350686,48.021162,60
C5020-13,SULAIBIKHAT & DOHA COOP - COLD STORE,29.315653,47.847267,60
C5020-33,SULAIBIKHAT & DOHA COOP - BRANCH 3 - Block 2 (West),29.327221,47.815342,60
C5030-15,BAYAN COOP - BAKALA QATA NO. 5,29.298154,48.051096,60
C5030-5,BAYAN COOP - BAKALA QATA NO.6,29.302855,48.042813,60
C5030-7,BAYAN COOP - BAKALA QATA NO.10,29.294096,48.063587,60
C5030-8,BAYAN COOP - BAKALA QATA NO.7,29.298704,48.060039,60
C5033-8,HADIYA COOP - QATA 1,29.154364,48.088993,60
C5034-9,SABAHIYA COOP - BAKALA 4 A,29.109366,48.113586,60
C5048-4,AHMADI COOP - BRANCH1,29.082943,48.06525,60
C5048-5,AHMADI COOP - BRANCH3,29.077366,48.079598,60
C5048-6,AHMADI COOP - BRANCH2,29.078526,48.075851,60
C5052-12,QAIRWAN COOP - BAKALA (2),29.299109,47.810211,60
C92-25,THE SULTAN CENTER (206183) – Dark Store Sulaibiya,29.27475,47.846847,60
Office,Al-Zahem Malhotra,29.2905331,47.9232407,30
C1686-10,Lulu Faheel New,29.080415,48.133093,30
C1686-3,Lulu Faheel Old,29.080146,48.138609,30
C92-24,TSC new Al Khout (fahaheel),29.0785713,48.1394585,30
C2370-6,Oncost 1  ( Faheel),29.0770909,48.1321774,30
C2370-3,Oncost 3  ( Fahaheel),29.072235,48.113609,30
C2031-23,City Center ( Faheel),29.0789285,48.1379943,30
C2298-19,Mangaf Grand,29.1015704,48.1270976,30
C2355,Souk Aish (Daher),29.1477096,48.0760505,30
C2187,Metro Maliya,29.3627202,47.9640718,30
C2307-21,Hawalli Grand 3,29.3320746,48.0178035,30
C746-1,Kuwait India (Farwaniya),29.2731196,47.964852,30
C2115-7,Carrefour Farwaniya,29.2721349,47.9664704,30
C2515-1,4 save Mart,29.2818427,47.9613733,30
C1686-9,Lulu Express Farwaniya,29.2825953,47.9608846,30
C5066,Egila co-op,29.1704683,48.10214,30
C5001-1,Sharq co-op,29.3822339,47.995085,30
C21,Seddiq Co-op,29.2923779,47.9912789,30
C5053-0,Shuhada Co-op,29.2705419,48.0333057,30
C2113-6,Carrefour Hawalli,48.0775658,48.0199727,30
C2298-24,Jahra Grand,29.3388388,47.6727194,30
C2262-3,Rameez Jahra,29.3616551,47.6499472,30
C92-4,TSC Jahra,29.3539749,47.6637684,30
C5062,Fahad Al ahmed Co-op,29.1317171,48.1062378,30
C5059-1,Sabah Al Ahmed Co-op 1,28.8017344,48.0640568,30
C5059-11,Sabah Al Ahmed Co-op 2,28.7919554,48.0543318,30
C5059-18,sabah Al Ahmed Co-op 3,28.7807519,48.0402037,30
C5059-20,Kherian Co-op,28.66518,48.2753365,30
C5069-1,Wafra Co-op,28.6070627,48.0132317,30
C5026-7,Omeriya Branch 4,29.292483,47.952092,30
C5046-10,Rihab Branch 6,29.2845088,47.9302264,30
C5053-1,Shuhada Branch 4,29.2871507,47.9308102,30
C1686-11,Lulu Express Salmiya,29.3462989,48.0865594,30
C2262-2,Rameez Qurain,29.201537,48.0495315,30
C92-17,TSC Hawalli,29.341274,48.030033,30
C92-1,TSC salmiya,29.342529,48.0746,30
C92-23,TSC Bouleward Mall Salmiya,29.33062,48.077892,30
C92-21,TSC Promenade Hawalli,29.346838,48.012577,30
C2298-20,Grand Salmiya,29.3389366,48.0692494,30
C2370-7,Oncost Salmiya,29.338764,48.069374,30
C2307-25,Grand 2 Salmiya,29.3337359,48.0580477,30
C92-9,TSC Salwa,29.293974,48.083607,30
C2370-16,Oncost Salwa,29.282101,48.083153,30
C92-18,TSC Jabriya,29.316248,48.046211,30
C2450,Mango Hassawi,29.2607067,47.9272133,30
C1040-1,Meem Market Shuwaikh,29.3124966,47.9444659,30
C2115-3,Carrefour Jaleeb,29.2456283,47.9380967,30
C5033-1,Hadiya Co-op,29.150841,48.088333,30
C1125-1,Zam Zam Qurain,29.201537,48.0495315,30
C1686-2,Lulu Heart Qurain,29.201443,48.049816,30
C2370-21,Oncost Qurain,47.9613733,48.0462631,30
C2262-1,Rameez Shuwaikh,29.3216383,47.9345727,30
C1544-1,City Center Manar Mall,29.328241,47.931141,30
C5061-16,Jaber Al Ahmed New,29.353523,47.746162,30
C2355,souk Aish (Amgraha),29.3111703,47.7556355,30
C5068-2,Abdalli Co-op (Qasaniya),29.9568251,47.8408987,30
C5068-3,Abdalli Co-op (RAWDATAIN),29.87102,47.6811675,30
C5068-7,ABDALLI CO-OP (UM AL NAQQA),29.9568251,47.8408987,30
C2298-23,GRAND REGGAI,29.3061417,47.9099113,30
C5059-15,SABAH AL AHMED (E2),28.7906921,48.0876569,30
C5059-16,SABAH AL AHMED (E1),28.7792567,48.0782517,30
C5059-21,SABAH AL AHMED (E4),28.7805686,48.0875761,30
C5040-1,DAHER CO-OP MAIN SOUK,29.167482,48.064369,30
C92-1,TSC SALMIYA BLOCK 12,29.342529,48.0746,30
C5059-23,SABAH AL AHMED D5,28.7738833,48.0671146,30
C5059-14,SABAH AL AHMED D4,28.7744799,48.0592454,30
C5059-22,SABAH AL AHMED D3,28.7658609,48.061356,30
C5059-19,SABAH AL AHMED D1,28.7665505,48.0775658,30
C2298-13,GRAND SHUWAIKH PANDA MALL,29.3234782,47.9469419,30
C5053,Shuhada Co-op,29.3234782,47.9469419,30
C2472-1,AL NASIR HYPER KHAIRAN,29.2872256,47.9307673,30
C5059-8,SABAH AL AHMED B3,28.7856595,48.061181,30
C2298-22,GRAND HAWALLI 3,29.3320746,48.0178035,30
C5059-1,shuhda branch 4,28.802172,28.802172,30
C5059-10,SABAH AL AHMED B5,28.7920095,48.0429969,30
C5059-19,SABAH AL AHMED C1,28.784014,48.0401323,30
C5059-17,SABAH AL AHMED C4,28.7733708,48.0330653,30
C5059-13,SABAH AL AHMED C2,28.7808025,48.0458243,30
C5059-4,SABAH AL AHMED BRANCH A5,28.7939232,48.0699925,30
C5059-7,SABAH AL AHMED BRANCH A2,28.8093967,48.0585941,30
C5059-6,SABAH AL AHMED BRANCH A1,28.8043313,48.0535328,30
C5555-14,SALMIYA BRANCH 12,29.320844,48.0511758,30
C5046-9,RIHAB Branch 4,29.2845088,47.9302264,30